var = [
    {'beach_id': 1, 'beach_name': 'Pelican State Beach', 'latitude': 41.992395, 'longitude': -124.209664}, {'beach_id': 2, 'beach_name': 'Crescent Beach', 'latitude': 41.72836258, 'longitude': -124.1531784}, {'beach_id': 3, 'beach_name': 'Sue-meg State Park', 'latitude': 41.13665293, 'longitude': -124.155297}, {'beach_id': 4, 'beach_name': 'Trinidad State Beach', 'latitude': 41.06582175, 'longitude': -124.1497893}, {'beach_id': 5, 'beach_name': 'Little River State Beach', 'latitude': 41.01688007, 'longitude': -124.1117529}, {'beach_id': 6, 'beach_name': 'Clam Beach County Park', 'latitude': 40.99847401, 'longitude': -124.1151808}, {'beach_id': 7, 'beach_name': 'Clam Beach', 'latitude': 40.99536694, 'longitude': -124.1109588}, {'beach_id': 8, 'beach_name': 'Sinkyone Wilderness State Park', 'latitude': 39.92043479, 'longitude': -123.9397125}, {'beach_id': 9, 'beach_name': 'Westport-Union Landing State Beach', 'latitude': 39.67716307, 'longitude': -123.7912683}, {'beach_id': 10, 'beach_name': 'MacKerricher Beach', 'latitude': 39.489781, 'longitude': -123.798271}, {'beach_id': 11, 'beach_name': 'Glass Beach', 'latitude': 39.45277476, 'longitude': -123.8133215}, {'beach_id': 12, 'beach_name': 'Caspar Beach', 'latitude': 39.3627382, 'longitude': -123.8172252}, {'beach_id': 13, 'beach_name': 'Mendocino Headlands State Park', 'latitude': 39.309033, 'longitude': -123.806658}, {'beach_id': 14, 'beach_name': 'Manchester State Park', 'latitude': 38.98385949, 'longitude': -123.6993187}, {'beach_id': 15, 'beach_name': 'Schooner Gulch State Beach', 'latitude': 38.86821949, 'longitude': -123.6547063}, {'beach_id': 16, 'beach_name': 'Gualala Point Regional Park', 'latitude': 38.76076189, 'longitude': -123.526723}, {'beach_id': 17, 'beach_name': 'Black Point Beach', 'latitude': 38.686409, 'longitude': -123.432347}, {'beach_id': 18, 'beach_name': 'Goat Rock Beach', 'latitude': 38.44711794, 'longitude': -123.1265214}, {'beach_id': 19, 'beach_name': 'Blind Beach', 'latitude': 38.43699972, 'longitude': -123.1223772}, {'beach_id': 20, 'beach_name': 'Shell Beach', 'latitude': 38.417464, 'longitude': -123.105601}, {'beach_id': 21, 'beach_name': 'Wrights Beach', 'latitude': 38.40033248, 'longitude': -123.0969266}, {'beach_id': 22, 'beach_name': 'Gleason Beach', 'latitude': 38.39010789, 'longitude': -123.0857298}, {'beach_id': 23, 'beach_name': 'Schoolhouse Beach', 'latitude': 38.37626954, 'longitude': -123.0786946}, {'beach_id': 24, 'beach_name': 'Carmet Beach', 'latitude': 38.37254912, 'longitude': -123.0762862}, {'beach_id': 25, 'beach_name': 'Arched Rock Beach', 'latitude': 38.36725878, 'longitude': -123.0726081}, {'beach_id': 26, 'beach_name': 'Coleman Beach', 'latitude': 38.36596694, 'longitude': -123.0714996}, {'beach_id': 27, 'beach_name': 'Miwok Beach', 'latitude': 38.36111029, 'longitude': -123.0691915}, {'beach_id': 28, 'beach_name': 'North Salmon Creek Beach', 'latitude': 38.35991175, 'longitude': -123.0687585}, {'beach_id': 29, 'beach_name': 'South Salmon Creek Beach', 'latitude': 38.33989879, 'longitude': -123.0684011}, {'beach_id': 30, 'beach_name': 'Doran Beach', 'latitude': 38.31450636, 'longitude': -123.0443867}, {'beach_id': 31, 'beach_name': 'Dillon beach', 'latitude': 38.25058272, 'longitude': -122.9669146}, {'beach_id': 32, 'beach_name': 'Point Reyes Beach', 'latitude': 38.082153, 'longitude': -122.972819}, {'beach_id': 33, 'beach_name': 'Stinson Beach Park', 'latitude': 37.89914093, 'longitude': -122.6457161}, {'beach_id': 34, 'beach_name': 'Muir Beach', 'latitude': 37.859424, 'longitude': -122.576835}, {'beach_id': 35, 'beach_name': 'Rodeo Beach', 'latitude': 37.83175951, 'longitude': -122.5385814}, {'beach_id': 36, 'beach_name': "Marshall's Beach", 'latitude': 37.80212595, 'longitude': -122.4800495}, {'beach_id': 37, 'beach_name': 'Baker Beach', 'latitude': 37.79389403, 'longitude': -122.4837904}, {'beach_id': 38, 'beach_name': 'Lands End Beach', 'latitude': 37.78765857, 'longitude': -122.5061247}, {'beach_id': 39, 'beach_name': 'Ocean Beach (SF)', 'latitude': 37.759369, 'longitude': -122.511772}, {'beach_id': 40, 'beach_name': 'Funston Beach', 'latitude': 37.71968785, 'longitude': -122.5028803}, {'beach_id': 41, 'beach_name': 'Thornton Beach State Park', 'latitude': 37.69895078, 'longitude': -122.4966631}, {'beach_id': 42, 'beach_name': 'Mussel Rock Park', 'latitude': 37.66864578, 'longitude': -122.4949438}, {'beach_id': 43, 'beach_name': 'Gray Whale Cove State Beach', 'latitude': 37.56465031, 'longitude': -122.514044}, {'beach_id': 44, 'beach_name': 'Montara State Beach', 'latitude': 37.54661402, 'longitude': -122.5149052}, {'beach_id': 45, 'beach_name': 'El Granada Beach', 'latitude': 37.5005241, 'longitude': -122.4706817}, {'beach_id': 46, 'beach_name': 'Vallejo Beach', 'latitude': 37.49660111, 'longitude': -122.4650877}, {'beach_id': 47, 'beach_name': 'Roosevelt Beach', 'latitude': 37.48808914, 'longitude': -122.4566241}, {'beach_id': 48, 'beach_name': 'Dunes Beach', 'latitude': 37.48509246, 'longitude': -122.4539204}, {'beach_id': 49, 'beach_name': 'Half Moon Bay State Beach', 'latitude': 37.47766417, 'longitude': -122.4500385}, {'beach_id': 50, 'beach_name': 'Francis Beach', 'latitude': 37.46564519, 'longitude': -122.4467106}, {'beach_id': 51, 'beach_name': 'Poplar Beach', 'latitude': 37.45607296, 'longitude': -122.4447794}, {'beach_id': 52, 'beach_name': 'Redondo State Beach', 'latitude': 37.44070715, 'longitude': -122.4437066}, {'beach_id': 53, 'beach_name': 'Cowell Ranch Beach', 'latitude': 37.42101853, 'longitude': -122.4351767}, {'beach_id': 54, 'beach_name': 'Martins Beach', 'latitude': 37.37371681, 'longitude': -122.4085306}, {'beach_id': 55, 'beach_name': 'Tunitas Creek Beach', 'latitude': 37.35550969, 'longitude': -122.3999619}, {'beach_id': 56, 'beach_name': 'San Gregorio Private Beach', 'latitude': 37.3365993, 'longitude': -122.4013304}, {'beach_id': 57, 'beach_name': 'San Gregorio State Beach', 'latitude': 37.32390506, 'longitude': -122.402532}, {'beach_id': 58, 'beach_name': 'Pomponio State Beach', 'latitude': 37.29312103, 'longitude': -122.4069395}, {'beach_id': 59, 'beach_name': 'Pescadero State Beach', 'latitude': 37.26296837, 'longitude': -122.4136772}, {'beach_id': 60, 'beach_name': 'Bean Hollow State Beach', 'latitude': 37.22636846, 'longitude': -122.409955}, {'beach_id': 61, 'beach_name': 'Pigeon Point Beach', 'latitude': 37.18281646, 'longitude': -122.3849497}, {'beach_id': 62, 'beach_name': 'Gazos Creek State Beach', 'latitude': 37.1683354, 'longitude': -122.3626122}, {'beach_id': 63, 'beach_name': 'Año Nuevo State Park', 'latitude': 37.11362641, 'longitude': -122.3299457}, {'beach_id': 64, 'beach_name': 'New Brighton State Beach', 'latitude': 36.97873139, 'longitude': -121.9383879}, {'beach_id': 65, 'beach_name': 'Capitola State Beach', 'latitude': 36.971483, 'longitude': -121.951613}, {'beach_id': 66, 'beach_name': 'Seacliff State Beach', 'latitude': 36.97197984, 'longitude': -121.91399}, {'beach_id': 67, 'beach_name': 'Santa Cruz Beach', 'latitude': 36.96440579, 'longitude': -122.0177257}, {'beach_id': 68, 'beach_name': 'Twin Lakes State Beach', 'latitude': 36.96234726, 'longitude': -121.9978356}, {'beach_id': 69, 'beach_name': 'Lighthouse Field State Beach', 'latitude': 36.95189034, 'longitude': -122.0285827}, {'beach_id': 70, 'beach_name': 'Natural Bridges State Beach', 'latitude': 36.95043481, 'longitude': -122.0573468}, {'beach_id': 71, 'beach_name': 'Manresa State Beach', 'latitude': 36.93232569, 'longitude': -121.862878}, {'beach_id': 72, 'beach_name': 'Sunset State Beach', 'latitude': 36.88700143, 'longitude': -121.8326324}, {'beach_id': 73, 'beach_name': 'Zmudowski State Beach', 'latitude': 36.84292083, 'longitude': -121.805257}, {'beach_id': 74, 'beach_name': 'Moss Landing State Beach', 'latitude': 36.81540267, 'longitude': -121.7915881}, {'beach_id': 75, 'beach_name': 'Salinas River State Beach', 'latitude': 36.7754768, 'longitude': -121.7952683}, {'beach_id': 76, 'beach_name': 'Marina State Beach', 'latitude': 36.69649793, 'longitude': -121.8094498}, {'beach_id': 77, 'beach_name': 'Asilomar State Beach', 'latitude': 36.61826712, 'longitude': -121.9419008}, {'beach_id': 78, 'beach_name': 'Monterey State Beach', 'latitude': 36.61250151, 'longitude': -121.8580798}, {'beach_id': 79, 'beach_name': 'Pebble Beach', 'latitude': 36.57242701, 'longitude': -121.9477807}, {'beach_id': 80, 'beach_name': 'Carmel River State Beach', 'latitude': 36.53817954, 'longitude': -121.9290057}, {'beach_id': 81, 'beach_name': 'Point Sur Lightstation State Historic Park', 'latitude': 36.309028, 'longitude': -121.8954479}, {'beach_id': 82, 'beach_name': 'Sand Dollar Beach', 'latitude': 35.92314004, 'longitude': -121.4685117}, {'beach_id': 83, 'beach_name': 'William Randolph Hearst Memorial State Beach', 'latitude': 35.64417168, 'longitude': -121.1880653}, {'beach_id': 84, 'beach_name': 'Cayucos State Beach', 'latitude': 35.44857182, 'longitude': -120.9059346}, {'beach_id': 85, 'beach_name': 'Morro Strand State Beach', 'latitude': 35.39210458, 'longitude': -120.8668416}, {'beach_id': 86, 'beach_name': 'Morro Rock Beach', 'latitude': 35.37284552, 'longitude': -120.865919}, {'beach_id': 87, 'beach_name': 'Ávila Beach', 'latitude': 35.18010746, 'longitude': -120.7316191}, {'beach_id': 88, 'beach_name': 'Shell Beach', 'latitude': 35.17215991, 'longitude': -120.70133}, {'beach_id': 89, 'beach_name': 'Pismo Beach Pier', 'latitude': 35.139858, 'longitude': -120.644774}, {'beach_id': 90, 'beach_name': 'Rancho Guadalupe Dunes County Park', 'latitude': 34.96514896, 'longitude': -120.6515443}, {'beach_id': 91, 'beach_name': 'Point Sal State Beach', 'latitude': 34.90204849, 'longitude': -120.6548958}, {'beach_id': 92, 'beach_name': 'Surf Beach', 'latitude': 34.68424954, 'longitude': -120.6064212}, {'beach_id': 93, 'beach_name': 'Jalama Beach County Park', 'latitude': 34.51081204, 'longitude': -120.5018918}, {'beach_id': 94, 'beach_name': 'Gaviota State Park', 'latitude': 34.47353149, 'longitude': -120.2296213}, {'beach_id': 95, 'beach_name': 'Refugio State Beach', 'latitude': 34.46328972, 'longitude': -120.0701569}, {'beach_id': 96, 'beach_name': 'El Capitán State Beach', 'latitude': 34.46061439, 'longitude': -120.0248308}, {'beach_id': 97, 'beach_name': 'Sands Beach', 'latitude': 34.407591, 'longitude': -119.879251}, {'beach_id': 98, 'beach_name': 'Summerland Beach', 'latitude': 34.42038268, 'longitude': -119.6024139}, {'beach_id': 99, 'beach_name': 'Butterfly Beach', 'latitude': 34.4177324, 'longitude': -119.6494454}, {'beach_id': 100, 'beach_name': 'Goleta Beach Park', 'latitude': 34.41681648, 'longitude': -119.8324352}, {'beach_id': 101, 'beach_name': 'East Beach', 'latitude': 34.41634896, 'longitude': -119.6804242}, {'beach_id': 102, 'beach_name': 'West Beach', 'latitude': 34.40535704, 'longitude': -119.6973811}, {'beach_id': 103, 'beach_name': 'Arroyo Burro Beach', 'latitude': 34.4026134, 'longitude': -119.7430753}, {'beach_id': 104, 'beach_name': 'Leadbetter Beach', 'latitude': 34.40248784, 'longitude': -119.699369}, {'beach_id': 105, 'beach_name': 'Carpinteria State Beach', 'latitude': 34.39281987, 'longitude': -119.5240894}, {'beach_id': 106, 'beach_name': 'Rincon Beach Park', 'latitude': 34.3801909, 'longitude': -119.4831245}, {'beach_id': 107, 'beach_name': 'Emma Wood State Beach', 'latitude': 34.29332738, 'longitude': -119.3400669}, {'beach_id': 108, 'beach_name': 'San Buenaventura State Beach', 'latitude': 34.26991871, 'longitude': -119.2768745}, {'beach_id': 109, 'beach_name': 'McGrath State Beach', 'latitude': 34.2210903, 'longitude': -119.259957}, {'beach_id': 110, 'beach_name': 'Oxnard Beach Park', 'latitude': 34.17672826, 'longitude': -119.2371455}, {'beach_id': 111, 'beach_name': 'Silver Strand Beach', 'latitude': 34.150945, 'longitude': -119.219362}, {'beach_id': 112, 'beach_name': 'Port Hueneme Beach Park', 'latitude': 34.14254714, 'longitude': -119.1960592}, {'beach_id': 113, 'beach_name': 'Topanga Beach', 'latitude': 34.038412, 'longitude': -118.582189}, {'beach_id': 114, 'beach_name': 'County Line Beach', 'latitude': 34.051417, 'longitude': -118.9601453}, {'beach_id': 115, 'beach_name': 'Leo Carrillo State Park', 'latitude': 34.04417165, 'longitude': -118.9353832}, {'beach_id': 116, 'beach_name': 'El Pescador State Beach', 'latitude': 34.04055637, 'longitude': -118.8920206}, {'beach_id': 117, 'beach_name': 'La Piedra State Beach', 'latitude': 34.03985483, 'longitude': -118.8874178}, {'beach_id': 118, 'beach_name': 'Robert Meyer Memorial State Beach', 'latitude': 34.03869785, 'longitude': -118.8758222}, {'beach_id': 119, 'beach_name': 'Broad Beach', 'latitude': 34.0378004, 'longitude': -118.8678132}, {'beach_id': 120, 'beach_name': 'Will Rogers State Beach', 'latitude': 34.03695749, 'longitude': -118.5375772}, {'beach_id': 121, 'beach_name': 'Lechuza Beach', 'latitude': 34.03610607, 'longitude': -118.8662851}, {'beach_id': 122, 'beach_name': 'Malibu Lagoon State Beach', 'latitude': 34.03397257, 'longitude': -118.6803286}, {'beach_id': 123, 'beach_name': 'Palisades Park', 'latitude': 34.02321351, 'longitude': -118.5095999}, {'beach_id': 124, 'beach_name': 'Zuma Beach County Park', 'latitude': 34.02190008, 'longitude': -118.8306025}, {'beach_id': 125, 'beach_name': 'Santa Monica State Beach', 'latitude': 34.01453645, 'longitude': -118.5023759}, {'beach_id': 126, 'beach_name': 'Point Dume State Beach', 'latitude': 34.01137544, 'longitude': -118.8169822}, {'beach_id': 127, 'beach_name': 'Venice Beach', 'latitude': 33.97918361, 'longitude': -118.469256}, {'beach_id': 128, 'beach_name': 'Playa Del Rey', 'latitude': 33.953557, 'longitude': -118.4489999}, {'beach_id': 129, 'beach_name': 'Dockweiler Beach', 'latitude': 33.93020159, 'longitude': -118.4361253}, {'beach_id': 130, 'beach_name': 'El Segundo Beach', 'latitude': 33.91567244, 'longitude': -118.4299455}, {'beach_id': 131, 'beach_name': 'El Porto Beach', 'latitude': 33.90327605, 'longitude': -118.4218}, {'beach_id': 132, 'beach_name': 'Manhattan Beach Pier', 'latitude': 33.884653, 'longitude': -118.413534}, {'beach_id': 133, 'beach_name': 'Redondo Beach Pier', 'latitude': 33.836274, 'longitude': -118.390844}, {'beach_id': 134, 'beach_name': 'Hermosa Beach Pier', 'latitude': 33.86262759, 'longitude': -118.4029938}, {'beach_id': 135, 'beach_name': 'Torrance County Beach', 'latitude': 33.81375651, 'longitude': -118.3917316}, {'beach_id': 136, 'beach_name': 'RAT Beach', 'latitude': 33.80419646, 'longitude': -118.3947961}, {'beach_id': 137, 'beach_name': 'Seal Beach', 'latitude': 33.73288587, 'longitude': -118.0944039}, {'beach_id': 138, 'beach_name': 'Royal Palms Beach Park', 'latitude': 33.72059658, 'longitude': -118.3280213}, {'beach_id': 139, 'beach_name': 'Cabrillo Beach', 'latitude': 33.71107, 'longitude': -118.283053}, {'beach_id': 140, 'beach_name': 'Bolsa Chica State Beach', 'latitude': 33.69949298, 'longitude': -118.0506696}, {'beach_id': 141, 'beach_name': 'Huntington City Beach', 'latitude': 33.6556063, 'longitude': -118.0027792}, {'beach_id': 142, 'beach_name': 'Huntington State Beach', 'latitude': 33.63838381, 'longitude': -117.9741486}, {'beach_id': 143, 'beach_name': 'Santa Ana River County Beach', 'latitude': 33.62579683, 'longitude': -117.9515567}, {'beach_id': 144, 'beach_name': 'Newport Beach Municipal Beach', 'latitude': 33.60645254, 'longitude': -117.9260873}, {'beach_id': 145, 'beach_name': 'Balboa Beach', 'latitude': 33.596877, 'longitude': -117.89127}, {'beach_id': 146, 'beach_name': 'The Wedge (Newport Beach)', 'latitude': 33.593665, 'longitude': -117.881895}, {'beach_id': 147, 'beach_name': 'Corona del Mar State Beach', 'latitude': 33.59308086, 'longitude': -117.8765156}, {'beach_id': 148, 'beach_name': 'Little Corona del Mar Beach', 'latitude': 33.59007934, 'longitude': -117.8689934}, {'beach_id': 149, 'beach_name': 'Crystal Cove State Park', 'latitude': 33.57566596, 'longitude': -117.8412706}, {'beach_id': 150, 'beach_name': 'Crescent Bay Point Park', 'latitude': 33.54707317, 'longitude': -117.8038219}, {'beach_id': 151, 'beach_name': "Shaw's Cove", 'latitude': 33.54560671, 'longitude': -117.7982644}, {'beach_id': 152, 'beach_name': "Diver's Cove", 'latitude': 33.54480194, 'longitude': -117.7945844}, {'beach_id': 153, 'beach_name': 'Picnic Beach', 'latitude': 33.54364841, 'longitude': -117.7927497}, {'beach_id': 154, 'beach_name': 'Rockpile Beach', 'latitude': 33.543094, 'longitude': -117.7896491}, {'beach_id': 155, 'beach_name': 'Laguna Beach', 'latitude': 33.54263769, 'longitude': -117.7870208}, {'beach_id': 156, 'beach_name': 'Main Beach', 'latitude': 33.54256641, 'longitude': -117.7869133}, {'beach_id': 157, 'beach_name': 'Brooks Street Beach', 'latitude': 33.53275705, 'longitude': -117.7771038}, {'beach_id': 158, 'beach_name': 'Victoria Beach', 'latitude': 33.51689843, 'longitude': -117.7611228}, {'beach_id': 159, 'beach_name': 'Aliso Beach', 'latitude': 33.51038632, 'longitude': -117.7525398}, {'beach_id': 160, 'beach_name': 'West Street Beach', 'latitude': 33.50595903, 'longitude': -117.7486526}, {'beach_id': 161, 'beach_name': '1,000 Steps Beach', 'latitude': 33.4985416, 'longitude': -117.7414247}, {'beach_id': 162, 'beach_name': 'Salt Creek County Beach', 'latitude': 33.47769283, 'longitude': -117.7226023}, {'beach_id': 163, 'beach_name': 'Doheny State Beach', 'latitude': 33.46287214, 'longitude': -117.6873259}, {'beach_id': 164, 'beach_name': 'Capistrano Beach Park', 'latitude': 33.45614113, 'longitude': -117.6676277}, {'beach_id': 165, 'beach_name': 'Beach State Park', 'latitude': 33.45460429, 'longitude': -117.6692246}, {'beach_id': 166, 'beach_name': 'Poche Beach', 'latitude': 33.44156743, 'longitude': -117.64617}, {'beach_id': 167, 'beach_name': 'San Clemente City Beach', 'latitude': 33.42782296, 'longitude': -117.6280388}, {'beach_id': 168, 'beach_name': 'San Clemente State Beach', 'latitude': 33.40365884, 'longitude': -117.6048362}, {'beach_id': 169, 'beach_name': 'San Onofre State Beach', 'latitude': 33.37388206, 'longitude': -117.5662879}, {'beach_id': 170, 'beach_name': 'Del Mar Beach, Camp Pendleton', 'latitude': 33.22066881, 'longitude': -117.4072513}, {'beach_id': 171, 'beach_name': 'Oceanside Harbor Beach', 'latitude': 33.204828, 'longitude': -117.394755}, {'beach_id': 172, 'beach_name': 'Oceanside City Beach', 'latitude': 33.19538512, 'longitude': -117.3857032}, {'beach_id': 173, 'beach_name': 'Buccaneer Beach, Oceanside', 'latitude': 33.17851501, 'longitude': -117.3703371}, {'beach_id': 174, 'beach_name': 'South Oceanside Beach (Cassidy Street)', 'latitude': 33.17311454, 'longitude': -117.3655589}, {'beach_id': 175, 'beach_name': 'Saint Malo Beach', 'latitude': 33.16615726, 'longitude': -117.360099}, {'beach_id': 176, 'beach_name': 'Carlsbad City Beach', 'latitude': 33.15757212, 'longitude': -117.3532021}, {'beach_id': 177, 'beach_name': 'Carlsbad State Beach', 'latitude': 33.15031883, 'longitude': -117.3487623}, {'beach_id': 178, 'beach_name': 'Terra Mar Point', 'latitude': 33.12822917, 'longitude': -117.3335735}, {'beach_id': 179, 'beach_name': 'Ponto Beach', 'latitude': 33.10747125, 'longitude': -117.3218329}, {'beach_id': 180, 'beach_name': 'South Carlsbad State Beach', 'latitude': 33.10359124, 'longitude': -117.3199447}, {'beach_id': 181, 'beach_name': 'Grandview', 'latitude': 33.07705649, 'longitude': -117.3110183}, {'beach_id': 182, 'beach_name': "Beacon's Beach", 'latitude': 33.07691959, 'longitude': -117.3099082}, {'beach_id': 183, 'beach_name': 'Stone Steps Beach', 'latitude': 33.05364974, 'longitude': -117.3011103}, {'beach_id': 184, 'beach_name': 'Moonlight Beach', 'latitude': 33.0493509, 'longitude': -117.298868}, {'beach_id': 185, 'beach_name': 'D Street Viewpoint', 'latitude': 33.04570416, 'longitude': -117.2974281}, {'beach_id': 186, 'beach_name': 'Swamis', 'latitude': 33.03502813, 'longitude': -117.2929205}, {'beach_id': 187, 'beach_name': 'San Elijo State Beach', 'latitude': 33.02257902, 'longitude': -117.2842516}, {'beach_id': 188, 'beach_name': 'Cardiff State Beach', 'latitude': 33.01050606, 'longitude': -117.27963}, {'beach_id': 189, 'beach_name': 'Tide Beach Park', 'latitude': 32.99686572, 'longitude': -117.2764543}, {'beach_id': 190, 'beach_name': 'Fletcher Cove Park', 'latitude': 32.99089067, 'longitude': -117.2752956}, {'beach_id': 191, 'beach_name': 'Seascape Surf', 'latitude': 32.98567586, 'longitude': -117.2729118}, {'beach_id': 192, 'beach_name': 'Del Mar City Beach', 'latitude': 32.97695929, 'longitude': -117.269502}, {'beach_id': 193, 'beach_name': 'Torrey Pines State Beach', 'latitude': 32.93778126, 'longitude': -117.2617343}, {'beach_id': 194, 'beach_name': "Black's Beach", 'latitude': 32.89147257, 'longitude': -117.2559886}, {'beach_id': 195, 'beach_name': 'La Jolla Shores', 'latitude': 32.88563453, 'longitude': -117.2535424}, {'beach_id': 196, 'beach_name': 'La Jolla Cove', 'latitude': 32.85038249, 'longitude': -117.2730244}, {'beach_id': 197, 'beach_name': 'Marine Street Beach', 'latitude': 32.83785649, 'longitude': -117.2816841}, {'beach_id': 198, 'beach_name': 'Windansea Beach', 'latitude': 32.83123002, 'longitude': -117.2813634}, {'beach_id': 199, 'beach_name': 'Tourmaline Surfing Park', 'latitude': 32.80545903, 'longitude': -117.2625367}, {'beach_id': 200, 'beach_name': 'Pacific Beach', 'latitude': 32.79393428, 'longitude': -117.2568115}, {'beach_id': 201, 'beach_name': 'Mission Beach', 'latitude': 32.77304026, 'longitude': -117.25171}, {'beach_id': 202, 'beach_name': 'Ocean Beach City Beach', 'latitude': 32.74163262, 'longitude': -117.2544577}, {'beach_id': 203, 'beach_name': 'Coronado Municipal Beach', 'latitude': 32.68946424, 'longitude': -117.1868348}, {'beach_id': 204, 'beach_name': 'Silver Strand State Beach', 'latitude': 32.63466425, 'longitude': -117.1419929}, {'beach_id': 205, 'beach_name': 'Imperial Beach', 'latitude': 32.57583119, 'longitude': -117.1265769}
];