Beach_ID,Beach Name,Latitude,Longitude,Sunrise,Sunset,Weather Description,Temperature,Water Temperature,Cloud Cover,Wind Speed,Wave Height
0,Border Field State Park,32.54494004,-117.1223413,06:19 AM,04:47 PM,Clear,61,58,0,7,3.3
1,Pelican State Beach,41.992395,-124.209664,07:09 AM,04:55 PM,Clear,48,48,0,11,4.9
2,Crescent Beach,41.72836258,-124.1531784,07:08 AM,04:55 PM,Clear,46,51,0,11,3.9
3,Redwood National Park,41.20897003,-124.1190559,07:06 AM,04:57 PM,Clear,47,47,0,4,4.6
4,Prairie Creek Redwoods State Beach,41.40174089,-124.0416494,07:06 AM,04:57 PM,Clear,47,47,0,4,4.6
5,Humboldt Lagoons State Park,41.22522304,-124.0980863,07:06 AM,04:57 PM,Clear,47,47,0,4,4.6
6,Sue-meg State Park,41.13665293,-124.155297,07:06 AM,04:57 PM,Clear,47,47,0,4,4.6
7,Trinidad State Beach,41.06582175,-124.1497893,07:06 AM,04:57 PM,Clear,47,47,0,4,4.6
8,Little River State Beach,41.01688007,-124.1117529,07:06 AM,04:57 PM,Clear,47,47,0,4,4.6
9,Clam Beach County Park,40.99847401,-124.1151808,07:06 AM,04:57 PM,Clear,47,47,0,4,4.6
10,Sinkyone Wilderness State Park,39.92043479,-123.9397125,07:03 AM,04:59 PM,Clear,51,50,0,9,4.6
11,Westport-Union Landing State Beach,39.67716307,-123.7912683,07:01 AM,04:59 PM,Clear,49,53,0,8,3.6
12,MacKerricher State Park,39.4886489,-123.7881132,07:01 AM,04:59 PM,Clear,49,53,0,2,3.9
13,Caspar Headlands State Beach,39.3627382,-123.8172252,07:00 AM,05:00 PM,Clear,49,53,0,2,3.9
14,Russian Gulch State Park,39.33310956,-123.8058978,07:00 AM,05:00 PM,Clear,49,53,0,2,3.9
15,Manchester State Park,38.98385949,-123.6993187,06:59 AM,05:00 PM,Clear,51,49,0,9,4.3
16,Schooner Gulch State Beach,38.86821949,-123.6547063,06:59 AM,05:00 PM,Clear,51,49,0,9,4.3
17,Glass Beach,39.45277476,-123.8133215,07:01 AM,04:59 PM,Clear,49,53,0,2,3.9
18,Gualala Point Regional Park,38.76076189,-123.526723,06:59 AM,05:00 PM,Clear,51,49,0,9,4.3
19,Kruse Rhododendron State Reserve,38.59299403,-123.3311264,06:57 AM,04:59 PM,Clear,50,49,0,6,4.3
20,Salt Point State Park,38.57666921,-123.3317278,06:57 AM,04:59 PM,Clear,50,49,0,6,4.3
21,Stillwater Cove Regional Park,38.54852987,-123.2943892,06:56 AM,04:59 PM,Clear,48,53,0,5,3.3
22,Clam Beach,40.99536694,-124.1109588,07:06 AM,04:57 PM,Clear,47,47,0,4,4.6
23,Fort Ross State Historic Park,38.51617729,-123.2460254,06:56 AM,04:59 PM,Clear,48,53,0,5,3.3
24,Goat Rock Beach,38.44711794,-123.1265214,06:55 AM,04:59 PM,Clear,50,49,0,5,3.3
25,Blind Beach,38.43699972,-123.1223772,06:55 AM,04:59 PM,Clear,50,49,0,5,3.3
26,Shell Beach,38.50306292,-123.1417195,06:56 AM,04:59 PM,Clear,48,53,0,5,3.3
27,Wrights Beach,38.40033248,-123.0969266,06:55 AM,04:59 PM,Clear,50,49,0,5,3.3
28,Gleason Beach,38.39010789,-123.0857298,06:55 AM,04:59 PM,Clear,50,49,0,5,3.3
29,Schoolhouse Beach,38.37626954,-123.0786946,06:55 AM,04:59 PM,Clear,50,49,0,5,3.3
30,Carmet Beach,38.37254912,-123.0762862,06:55 AM,04:59 PM,Clear,50,49,0,5,3.3
31,Arched Rock Beach,38.36725878,-123.0726081,06:55 AM,04:59 PM,Clear,50,49,0,5,3.3
32,Coleman Beach,38.36596694,-123.0714996,06:55 AM,04:59 PM,Clear,50,49,0,5,3.3
33,Miwok Beach,38.36111029,-123.0691915,06:55 AM,04:59 PM,Clear,50,49,0,5,3.3
34,North Salmon Creek Beach,38.35991175,-123.0687585,06:55 AM,04:59 PM,Clear,50,49,0,5,3.3
35,South Salmon Creek Beach,38.33989879,-123.0684011,06:55 AM,04:59 PM,Clear,50,49,0,5,3.3
36,Sonoma Coast State Beach,38.42730398,-123.0997142,06:55 AM,04:59 PM,Clear,50,49,0,5,3.3
37,Doran Beach,38.31450636,-123.0443867,06:55 AM,04:59 PM,Clear,49,54,0,4,3.3
38,Doran Regional Park,38.31405857,-123.0487846,06:55 AM,04:59 PM,Clear,49,54,0,4,3.3
39,Tomales Bay State Park,38.12344382,-122.9013544,06:54 AM,04:59 PM,Clear,53,51,0,6,3.9
40,Point Reyes National Seashore,38.05334833,-122.8686076,06:53 AM,04:59 PM,Clear,53,51,0,6,3.9
41,Mount Tamalpais State Park,37.88916572,-122.6108739,06:52 AM,04:58 PM,Clear,52,52,0,6,2.3
42,Stinson Beach Park,37.89914093,-122.6457161,06:52 AM,04:58 PM,Clear,52,52,0,6,2.3
43,Golden Gate National Recreation Area,37.83175951,-122.5385814,06:52 AM,04:58 PM,Clear,52,52,0,6,2.3
44,Dillon beach,38.25058272,-122.9669146,06:54 AM,04:59 PM,Clear,49,54,0,4,3.3
45,Muir Beach,37.86144576,-122.5794152,06:52 AM,04:58 PM,Clear,52,52,0,6,2.3
46,Miller/Knox Beach,37.91654106,-122.3849756,06:51 AM,04:57 PM,Clear,52,52,0,6,2.3
47,Albany Beach,37.889028,-122.317164,06:51 AM,04:57 PM,Clear,52,52,0,6,2.3
48,Radio Beach,37.82500399,-122.3177221,06:51 AM,04:57 PM,Clear,52,52,0,6,2.3
49,Crown Memorial State Beach,37.76638543,-122.2719476,06:50 AM,04:57 PM,Clear,51,51,0,8,3.6
50,Aquatic Park,37.85749931,-122.3006492,06:51 AM,04:57 PM,Clear,52,52,0,6,2.3
51,East Beach,37.90697664,-122.4472461,06:52 AM,04:57 PM,Clear,52,52,0,6,2.3
52,Marshall's Beach,37.80212595,-122.4800495,06:51 AM,04:58 PM,Clear,52,52,0,6,2.3
53,Baker Beach,37.79389403,-122.4837904,06:51 AM,04:58 PM,Clear,52,52,0,6,2.3
54,China Beach,37.82800894,-122.5124907,06:52 AM,04:58 PM,Clear,52,52,0,6,2.3
55,Lands End Beach,37.78765857,-122.5061247,06:52 AM,04:58 PM,Clear,52,52,0,6,2.3
56,Ocean Beach,37.88181079,-122.534132,06:52 AM,04:58 PM,Clear,52,52,0,6,2.3
57,Fort Funston Beach,37.71968785,-122.5028803,06:51 AM,04:58 PM,Clear,52,52,0,6,2.3
58,Thornton Beach State Park,37.69895078,-122.4966631,06:51 AM,04:58 PM,Clear,52,52,0,6,2.3
59,Palisades Park,34.02321351,-118.5095999,06:27 AM,04:50 PM,Clear,60,58,0,8,1.3
60,Northridge Park,34.04688979,-118.6136107,06:27 AM,04:50 PM,Clear,60,58,0,8,1.3
61,Mussel Rock Park,37.66864578,-122.4949438,06:51 AM,04:58 PM,Clear,52,52,0,6,2.3
62,Long View Park,33.4809628,-117.7246712,06:23 AM,04:47 PM,Clear,59,63,0,6,1.6
63,Beach State Park,33.45460429,-117.6692246,06:23 AM,04:47 PM,Clear,59,63,0,6,1.6
64,Rockaway Beach,40.58727455,-73.82006442,06:43 AM,04:36 PM,Patchy rain possible,47,59,100,24,4.6
65,Tunitas Creek Beach,37.35550969,-122.3999619,06:51 AM,04:58 PM,Clear,51,51,0,8,3.6
66,Gray Whale Cove State Beach,37.56465031,-122.514044,06:51 AM,04:58 PM,Clear,51,51,0,8,3.6
67,Montara State Beach,37.54661402,-122.5149052,06:51 AM,04:58 PM,Clear,51,51,0,8,3.6
68,El Granada Beach,37.5005241,-122.4706817,06:51 AM,04:58 PM,Clear,51,51,0,8,3.6
69,Vallejo Beach,37.49660111,-122.4650877,06:51 AM,04:58 PM,Clear,51,51,0,8,3.6
70,Miramar Beach,30.37588036,-86.36451333,06:12 AM,04:48 PM,Partly cloudy,49,71,7,22,3.3
71,Half Moon Bay State Beach,37.47766417,-122.4500385,06:51 AM,04:58 PM,Clear,51,51,0,8,3.6
72,Roosevelt Beach,37.48808914,-122.4566241,06:51 AM,04:58 PM,Clear,51,51,0,8,3.6
73,Dunes Beach,37.48509246,-122.4539204,06:51 AM,04:58 PM,Clear,51,51,0,8,3.6
74,Venice Beach,37.47654446,-122.4489851,06:51 AM,04:58 PM,Clear,51,51,0,8,3.6
75,Francis Beach,37.46564519,-122.4467106,06:51 AM,04:58 PM,Clear,51,51,0,8,3.6
76,Poplar Beach,37.45607296,-122.4447794,06:51 AM,04:58 PM,Clear,51,51,0,8,3.6
77,Redondo State Beach,37.44070715,-122.4437066,06:51 AM,04:58 PM,Clear,51,51,0,8,3.6
78,Pelican Point Beach,37.42830898,-122.4397991,06:51 AM,04:58 PM,Clear,51,51,0,8,3.6
79,Cowell Ranch Beach,37.42101853,-122.4351767,06:51 AM,04:58 PM,Clear,51,51,0,8,3.6
80,Martins Beach,37.37371681,-122.4085306,06:51 AM,04:58 PM,Clear,51,51,0,8,3.6
81,San Gregorio Private Beach,37.3365993,-122.4013304,06:51 AM,04:58 PM,Clear,51,51,0,8,3.6
82,San Gregorio State Beach,37.32390506,-122.402532,06:51 AM,04:58 PM,Clear,51,51,0,8,3.6
83,Pomponio State Beach,37.29312103,-122.4069395,06:49 AM,04:59 PM,Clear,52,53,0,10,3.9
84,Pescadero State Beach,37.26296837,-122.4136772,06:49 AM,04:59 PM,Clear,52,53,0,10,3.9
85,Pebble Beach,36.57242701,-121.9477807,06:46 AM,04:58 PM,Clear,54,52,0,12,4.6
86,Bean Hollow State Beach,37.22636846,-122.409955,06:49 AM,04:59 PM,Clear,52,53,0,10,3.9
87,Pigeon Point Beach,37.18281646,-122.3849497,06:49 AM,04:59 PM,Clear,52,53,0,10,3.9
88,Año Nuevo State Park,37.11362641,-122.3299457,06:49 AM,04:59 PM,Clear,52,53,0,10,3.9
89,Gazos Creek State Beach,37.1683354,-122.3626122,06:49 AM,04:59 PM,Clear,52,53,0,10,3.9
90,Scaroni Road beach,36.97819903,-122.1371627,06:49 AM,04:58 PM,Clear,53,52,0,9,3.6
91,Natural Bridges State Beach,36.95043481,-122.0573468,06:48 AM,04:58 PM,Clear,53,52,0,9,3.6
92,Lighthouse Field State Beach,36.95189034,-122.0285827,06:48 AM,04:58 PM,Clear,53,52,0,9,3.6
93,Santa Cruz Beach,36.96440579,-122.0177257,06:48 AM,04:58 PM,Clear,53,52,0,9,3.6
94,Twin Lakes State Beach,36.96234726,-121.9978356,06:48 AM,04:58 PM,Clear,53,52,0,9,3.6
95,Capitola State Beach,36.97124,-121.951902,06:48 AM,04:58 PM,Clear,53,52,0,9,3.6
96,Seacliff State Beach,36.97197984,-121.91399,06:47 AM,04:57 PM,Clear,49,52,0,8,2.0
97,Manresa State Beach,36.93232569,-121.862878,06:47 AM,04:57 PM,Clear,49,52,0,8,2.0
98,New Brighton State Beach,36.97873139,-121.9383879,06:48 AM,04:58 PM,Clear,53,52,0,9,3.6
99,Sunset State Beach,36.88700143,-121.8326324,06:47 AM,04:57 PM,Clear,49,52,0,8,2.0
100,Asilomar State Beach,36.61826712,-121.9419008,06:47 AM,04:58 PM,Clear,54,52,0,12,4.6
101,Carmel River State Beach,36.53817954,-121.9290057,06:46 AM,04:58 PM,Clear,54,52,0,12,4.6
102,John Little State Reserve,36.11949528,-121.6316069,06:45 AM,05:00 PM,Clear,57,52,0,9,4.9
103,Julia Pfeiffer Burns State Park,36.16594936,-121.6801454,06:46 AM,04:58 PM,Clear,54,52,0,12,4.6
104,Marina State Beach,36.69649793,-121.8094498,06:46 AM,04:58 PM,Clear,49,52,0,8,2.0
105,Monterey State Beach,36.61250151,-121.8580798,06:46 AM,04:58 PM,Clear,54,52,0,12,4.6
106,Moss Landing State Beach,36.81540267,-121.7915881,06:46 AM,04:57 PM,Clear,49,52,0,8,2.0
107,Point Lobos State Reserve,36.5165681,-121.9388299,06:46 AM,04:58 PM,Clear,54,52,0,12,4.6
108,Point Sur Lightstation State Historic Park,36.309028,-121.8954479,06:46 AM,04:58 PM,Clear,54,52,0,12,4.6
109,Salinas River State Beach,36.7754768,-121.7952683,06:46 AM,04:57 PM,Clear,49,52,0,8,2.0
110,Sand Dollar Beach,35.92314004,-121.4685117,06:41 AM,04:57 PM,Clear,54,52,0,9,3.9
111,Zmudowski State Beach,36.84292083,-121.805257,06:46 AM,04:57 PM,Clear,49,52,0,8,2.0
112,William Randolph Hearst Memorial State Beach,35.64417168,-121.1880653,06:41 AM,04:57 PM,Clear,54,52,0,9,3.9
113,Estero Bluffs State Park,35.44920684,-120.9181629,06:40 AM,04:56 PM,Clear,54,52,0,14,3.6
114,Cayucos State Beach,35.44857182,-120.9059346,06:40 AM,04:56 PM,Clear,54,52,0,14,3.6
115,Morro Strand State Beach,35.39210458,-120.8668416,06:40 AM,04:56 PM,Clear,54,52,0,14,3.6
116,Morro Rock Beach,35.37284552,-120.865919,06:40 AM,04:56 PM,Clear,54,52,0,14,3.6
117,Morro Bay State Park,35.34330579,-120.8430451,06:40 AM,04:56 PM,Clear,54,52,0,14,3.6
118,Montaña de Oro State Park,35.26925951,-120.8941898,06:40 AM,04:57 PM,Clear,54,52,0,14,3.6
119,Ávila Beach,35.18010746,-120.7316191,06:39 AM,04:56 PM,Clear,53,51,0,9,3.6
120,Pismo State Beach,35.14570355,-120.6417563,06:38 AM,04:56 PM,Clear,53,52,0,13,3.3
121,Rancho Guadalupe Dunes County Park,34.96514896,-120.6515443,06:38 AM,04:56 PM,Clear,53,52,0,13,3.3
122,Point Sal State Beach,34.90204849,-120.6548958,06:38 AM,04:56 PM,Clear,53,52,0,13,3.3
123,Surf Beach,34.68424954,-120.6064212,06:37 AM,04:57 PM,Clear,54,52,0,14,3.6
124,Jalama Beach County Park,34.51081204,-120.5018918,06:37 AM,04:57 PM,Clear,54,52,0,14,3.6
125,Jack and Laura Dangermond Preserve,34.54432267,-120.4129323,06:35 AM,04:56 PM,Clear,56,53,0,8,1.6
126,Hollister Ranch,34.4704015,-120.2347654,06:35 AM,04:56 PM,Clear,56,53,0,8,1.6
127,Gaviota State Park,34.47353149,-120.2296213,06:35 AM,04:56 PM,Clear,56,53,0,8,1.6
128,Refugio State Beach,34.46328972,-120.0701569,06:35 AM,04:56 PM,Clear,56,53,0,8,1.6
129,El Capitán State Beach,34.46061439,-120.0248308,06:34 AM,04:54 PM,Clear,57,53,0,7,1.3
130,Santa Barbara Shores County Park,34.42241824,-119.8961652,06:34 AM,04:54 PM,Clear,57,53,0,7,1.3
131,Goleta Beach Park,34.41681648,-119.8324352,06:34 AM,04:54 PM,Clear,57,53,0,7,1.3
132,Arroyo Burro Beach,34.4026134,-119.7430753,06:33 AM,04:54 PM,Clear,55,59,0,6,1.0
133,Leadbetter Beach,34.40248784,-119.699369,06:33 AM,04:54 PM,Clear,55,59,0,6,1.0
134,West Beach,34.40535704,-119.6973811,06:33 AM,04:54 PM,Clear,55,59,0,6,1.0
135,East Beach,34.41634896,-119.6804242,06:33 AM,04:54 PM,Clear,55,59,0,6,1.0
136,Butterfly Beach,34.4177324,-119.6494454,06:33 AM,04:54 PM,Clear,55,59,0,6,1.0
137,Lookout County Park,34.42038268,-119.6024139,06:33 AM,04:54 PM,Clear,55,59,0,6,1.0
138,Carpinteria State Beach,34.39281987,-119.5240894,06:32 AM,04:53 PM,Clear,55,59,0,6,1.0
139,Rincon Beach Park,34.3801909,-119.4831245,06:32 AM,04:53 PM,Clear,55,59,0,6,1.0
140,Emma Wood State Beach,34.29332738,-119.3400669,06:31 AM,04:52 PM,Clear,60,56,0,15,2.0
141,San Buenaventura State Beach,34.26991871,-119.2768745,06:31 AM,04:52 PM,Clear,60,56,0,15,2.0
142,McGrath State Beach,34.2210903,-119.259957,06:31 AM,04:52 PM,Clear,60,56,0,15,2.0
143,Mandalay State Beach,34.18131648,-119.2390512,06:31 AM,04:52 PM,Clear,60,56,0,15,2.0
144,Oxnard Beach Park,34.17672826,-119.2371455,06:31 AM,04:52 PM,Clear,60,56,0,15,2.0
145,Channel Islands Beach,34.15849146,-119.2247756,06:31 AM,04:52 PM,Clear,60,56,0,15,2.0
146,Silver Strand Beach,34.1582759,-119.2259773,06:31 AM,04:52 PM,Clear,60,56,0,15,2.0
147,Port Hueneme Beach Park,34.14254714,-119.1960592,06:30 AM,04:52 PM,Clear,61,57,0,15,2.3
148,Point Mugu State Park,34.09480328,-119.0635493,06:30 AM,04:52 PM,Clear,61,57,0,15,2.3
149,County Line Beach,34.051417,-118.9601453,06:30 AM,04:52 PM,Clear,61,57,0,15,2.3
150,Leo Carrillo State Park,34.04417165,-118.9353832,06:30 AM,04:52 PM,Clear,61,57,0,15,2.3
151,Robert Meyer Memorial State Beach,34.03869785,-118.8758222,06:30 AM,04:52 PM,Clear,61,57,0,15,2.3
152,El Pescador State Beach,34.04055637,-118.8920206,06:30 AM,04:52 PM,Clear,61,57,0,15,2.3
153,La Piedra State Beach,34.03985483,-118.8874178,06:30 AM,04:52 PM,Clear,61,57,0,15,2.3
154,El Matador State Beach,34.03820261,-118.8747166,06:30 AM,04:52 PM,Clear,61,57,0,15,2.3
155,Lechuza Beach,34.03610607,-118.8662851,06:30 AM,04:52 PM,Clear,61,57,0,15,2.3
156,Broad Beach,34.0378004,-118.8678132,06:30 AM,04:52 PM,Clear,61,57,0,15,2.3
157,Zuma Beach County Park,34.02190008,-118.8306025,06:30 AM,04:52 PM,Clear,61,57,0,15,2.3
158,Point Dume State Beach,34.01137544,-118.8169822,06:30 AM,04:52 PM,Clear,61,57,0,15,2.3
159,Malibu Lagoon State Beach,34.03397257,-118.6803286,06:27 AM,04:50 PM,Clear,60,58,0,8,1.3
160,Topanga State Beach,34.07308175,-118.5913072,06:27 AM,04:50 PM,Clear,60,58,0,8,1.3
161,Will Rogers State Beach,34.03695749,-118.5375772,06:27 AM,04:50 PM,Clear,60,58,0,8,1.3
162,Santa Monica State Beach,34.01453645,-118.5023759,06:27 AM,04:50 PM,Clear,60,58,0,8,1.3
163,Venice City Beach,33.97918361,-118.469256,06:27 AM,04:49 PM,Clear,60,58,0,8,1.3
164,Playa Del Rey,33.953557,-118.4489999,06:27 AM,04:49 PM,Clear,60,58,0,8,1.3
165,Dockweiler State Beach,33.93020159,-118.4361253,06:27 AM,04:50 PM,Clear,61,59,0,9,2.0
166,El Segundo Beach,33.91567244,-118.4299455,06:27 AM,04:50 PM,Clear,61,59,0,9,2.0
167,El Porto Beach,33.90327605,-118.4218,06:27 AM,04:50 PM,Clear,61,59,0,9,2.0
168,Manhattan Beach County Park,33.90186877,-118.4213709,06:27 AM,04:50 PM,Clear,61,59,0,9,2.0
169,Hermosa City Beach,33.86262759,-118.4029938,06:27 AM,04:50 PM,Clear,61,59,0,9,2.0
170,Redondo Beach State Park,33.8702527,-118.4056974,06:27 AM,04:50 PM,Clear,61,59,0,9,2.0
171,RAT Beach,33.80419646,-118.3947961,06:27 AM,04:50 PM,Clear,61,59,0,9,2.0
172,Torrance County Beach,33.81375651,-118.3917316,06:27 AM,04:50 PM,Clear,61,59,0,9,2.0
173,Royal Palms State Beach,33.72059658,-118.3280213,06:26 AM,04:49 PM,Clear,61,59,0,9,2.0
174,Cabrillo Beach Park,33.71624105,-118.3182366,06:26 AM,04:49 PM,Clear,61,59,0,9,2.0
175,Los Alamitos Bay (Long Beach),33.74966979,-118.1154674,06:25 AM,04:49 PM,Clear,62,59,0,19,2.6
176,Mother's Beach (Long Beach),33.75832864,-118.1198392,06:25 AM,04:49 PM,Clear,62,59,0,19,2.6
177,Seal Beach,33.73288587,-118.0944039,06:25 AM,04:48 PM,Clear,63,59,0,17,2.3
178,Surfside Beach,28.95797697,-95.27664486,06:45 AM,05:27 PM,Overcast,48,71,100,18,2.3
179,Sunset Beach,33.87633524,-78.49002885,06:47 AM,05:10 PM,Patchy rain possible,58,67,100,12,3.6
180,Bolsa Chica State Beach,33.69949298,-118.0506696,06:25 AM,04:48 PM,Clear,63,59,0,17,2.3
181,Huntington City Beach,33.6556063,-118.0027792,06:25 AM,04:48 PM,Clear,63,59,0,17,2.3
182,Huntington State Beach,33.63838381,-117.9741486,06:24 AM,04:48 PM,Clear,63,59,0,17,2.3
183,Santa Ana River County Beach,33.62579683,-117.9515567,06:24 AM,04:48 PM,Clear,63,59,0,17,2.3
184,Newport Municipal Beach,33.60645254,-117.9260873,06:24 AM,04:48 PM,Clear,63,59,0,17,2.3
185,West Jetty View Park,33.595343,-117.8830937,06:24 AM,04:48 PM,Clear,63,59,0,17,2.3
186,Bayside Drive County Beach,33.60680874,-117.8844751,06:24 AM,04:48 PM,Clear,63,59,0,17,2.3
187,China Cove Beach,33.59829167,-117.880188,06:24 AM,04:48 PM,Clear,63,59,0,17,2.3
188,Rocky Point,31.3232581,-113.5529865,07:03 AM,05:35 PM,Clear,58,71,0,23,3.0
189,Corona del Mar State Beach,33.59308086,-117.8765156,06:24 AM,04:48 PM,Clear,63,59,0,17,2.3
190,Little Corona del Mar Beach,33.59007934,-117.8689934,06:24 AM,04:48 PM,Clear,63,59,0,17,2.3
191,Crystal Cove State Park,33.57566596,-117.8412706,06:24 AM,04:48 PM,Clear,63,59,0,17,2.3
192,Crescent Bay Point Park,33.54707317,-117.8038219,06:24 AM,04:48 PM,Clear,63,59,0,17,2.3
193,Shaw's Cove,33.54560671,-117.7982644,06:24 AM,04:48 PM,Clear,63,59,0,17,2.3
194,Diver's Cove,33.54480194,-117.7945844,06:24 AM,04:48 PM,Clear,63,59,0,17,2.3
195,Rockpile Beach,33.543094,-117.7896491,06:24 AM,04:48 PM,Clear,63,59,0,17,2.3
196,Picnic Beach,33.54364841,-117.7927497,06:24 AM,04:48 PM,Clear,63,59,0,17,2.3
197,Main Beach,33.54256641,-117.7869133,06:24 AM,04:48 PM,Clear,63,59,0,17,2.3
198,Brooks Beach,33.53275705,-117.7771038,06:23 AM,04:47 PM,Clear,59,63,0,6,1.6
199,Victoria Beach,33.51689843,-117.7611228,06:23 AM,04:47 PM,Clear,59,63,0,6,1.6
200,Laguna Beach,33.54263769,-117.7870208,06:24 AM,04:48 PM,Clear,63,59,0,17,2.3
201,Aliso Creek County Beach,33.51038632,-117.7525398,06:23 AM,04:47 PM,Clear,59,63,0,6,1.6
202,West Street Beach,33.50595903,-117.7486526,06:23 AM,04:47 PM,Clear,59,63,0,6,1.6
203,"1,000 Steps Beach",33.4985416,-117.7414247,06:23 AM,04:47 PM,Clear,59,63,0,6,1.6
204,Salt Creek County Beach,33.47769283,-117.7226023,06:23 AM,04:47 PM,Clear,59,63,0,6,1.6
205,Doheny State Beach,33.46287214,-117.6873259,06:23 AM,04:47 PM,Clear,59,63,0,6,1.6
206,Capistrano Beach,33.45614113,-117.6676277,06:23 AM,04:47 PM,Clear,59,63,0,6,1.6
207,Poche Beach,33.44156743,-117.64617,06:23 AM,04:47 PM,Clear,59,63,0,6,1.6
208,San Clemente City Beach,33.42782296,-117.6280388,06:23 AM,04:47 PM,Clear,59,63,0,6,1.6
209,San Clemente State Beach,33.40365884,-117.6048362,06:23 AM,04:47 PM,Clear,59,63,0,6,1.6
210,San Onofre State Beach,33.37388206,-117.5662879,06:23 AM,04:47 PM,Clear,59,63,0,6,1.6
211,"Del Mar Beach, Camp Pendleton",33.22066881,-117.4072513,06:21 AM,04:47 PM,Clear,58,63,0,19,2.6
212,Harbor Beach,33.20826708,-117.3992667,06:21 AM,04:47 PM,Clear,58,63,0,19,2.6
213,Oceanside City Beach,33.19538512,-117.3857032,06:21 AM,04:47 PM,Clear,58,63,0,19,2.6
214,"Buccaneer Beach, Oceanside",33.17851501,-117.3703371,06:21 AM,04:47 PM,Clear,58,63,0,19,2.6
215,South Oceanside Beach (Cassidy Street),33.17311454,-117.3655589,06:21 AM,04:47 PM,Clear,58,63,0,19,2.6
216,Saint Malo Beach,33.16615726,-117.360099,06:21 AM,04:47 PM,Clear,58,63,0,19,2.6
217,Carlsbad City Beach,33.15757212,-117.3532021,06:21 AM,04:47 PM,Clear,58,63,0,19,2.6
218,Terra Mar Point,33.12822917,-117.3335735,06:21 AM,04:47 PM,Clear,58,63,0,19,2.6
219,Carlsbad State Beach,33.15031883,-117.3487623,06:21 AM,04:47 PM,Clear,58,63,0,19,2.6
220,South Carlsbad State Beach,33.10359124,-117.3199447,06:21 AM,04:47 PM,Clear,59,59,0,10,3.0
221,Ponto Beach,33.10747125,-117.3218329,06:21 AM,04:47 PM,Clear,59,59,0,10,3.0
222,Grandview,33.07705649,-117.3110183,06:21 AM,04:47 PM,Clear,59,59,0,10,3.0
223,Beacon's Beach,33.07691959,-117.3099082,06:21 AM,04:47 PM,Clear,59,59,0,10,3.0
224,Stone Steps Beach,33.05364974,-117.3011103,06:21 AM,04:47 PM,Clear,59,59,0,10,3.0
225,Moonlight Beach,33.0493509,-117.298868,06:21 AM,04:47 PM,Clear,59,59,0,10,3.0
226,D Street Viewpoint,33.04570416,-117.2974281,06:21 AM,04:47 PM,Clear,59,59,0,10,3.0
227,Boneyard Beach,33.04566009,-117.2974694,06:21 AM,04:47 PM,Clear,59,59,0,10,3.0
228,Swamis,33.03502813,-117.2929205,06:21 AM,04:47 PM,Clear,59,59,0,10,3.0
229,San Elijo State Beach,33.02257902,-117.2842516,06:21 AM,04:47 PM,Clear,59,59,0,10,3.0
230,Cardiff State Beach,33.01050606,-117.27963,06:21 AM,04:47 PM,Clear,59,59,0,10,3.0
231,Tide Beach Park,32.99686572,-117.2764543,06:21 AM,04:47 PM,Clear,59,59,0,10,3.0
232,Fletcher Cove Park,32.99089067,-117.2752956,06:21 AM,04:47 PM,Clear,59,59,0,10,3.0
233,Seascape Surf,32.98567586,-117.2729118,06:21 AM,04:47 PM,Clear,59,59,0,10,3.0
234,Del Mar City Beach,32.97695929,-117.269502,06:21 AM,04:47 PM,Clear,59,59,0,10,3.0
235,Torrey Pines State Beach,32.93778126,-117.2617343,06:20 AM,04:47 PM,Clear,60,59,0,6,2.6
236,Black's Beach,32.89147257,-117.2559886,06:20 AM,04:47 PM,Clear,60,59,0,6,2.6
237,La Jolla Shores,32.88563453,-117.2535424,06:20 AM,04:47 PM,Clear,60,59,0,6,2.6
238,La Jolla Cove,32.85038249,-117.2730244,06:20 AM,04:47 PM,Clear,60,59,0,6,2.6
239,Shell Beach,35.17215991,-120.70133,06:39 AM,04:56 PM,Clear,53,51,0,9,3.6
240,Children's Pool Beach,32.84769091,-117.2781184,06:20 AM,04:47 PM,Clear,60,59,0,6,2.6
241,Marine Street Beach,32.83785649,-117.2816841,06:20 AM,04:47 PM,Clear,60,59,0,6,2.6
242,Windansea Beach,32.83123002,-117.2813634,06:20 AM,04:47 PM,Clear,60,59,0,6,2.6
243,La Jolla Strand Park,32.86158261,-117.2560868,06:20 AM,04:47 PM,Clear,60,59,0,6,2.6
244,Tourmaline Surfing Park,32.80545903,-117.2625367,06:20 AM,04:47 PM,Clear,60,59,0,6,2.6
245,Pacific Beach,32.79393428,-117.2568115,06:20 AM,04:47 PM,Clear,60,59,0,6,2.6
246,Mission Beach,32.77304026,-117.25171,06:20 AM,04:47 PM,Clear,60,59,0,6,2.6
247,Ocean Beach City Beach,32.74163262,-117.2544577,06:20 AM,04:47 PM,Clear,60,59,0,6,2.6
248,Coronado Municipal Beach,32.68946424,-117.1868348,06:20 AM,04:47 PM,Clear,61,58,0,7,3.3
249,Silver Strand State Beach,32.63466425,-117.1419929,06:19 AM,04:47 PM,Clear,61,58,0,7,3.3
250,Imperial Beach,32.57583119,-117.1265769,06:19 AM,04:47 PM,Clear,61,58,0,7,3.3
